[
  {
    "id": 2,
    "name": "Avondale Brewing Co",
    "brewery_type": "micro",
    "street": "201 41st St S",
    "address_2": null,
    "address_3": null,
    "city": "Birmingham",
    "state": "Alabama",
    "county_province": null,
    "postal_code": "35222-1932",
    "country": "United States",
    "longitude": "-86.774322",
    "latitude": "33.524521",
    "phone": "2057775456",
    "website_url": "http://www.avondalebrewing.com",
    "updated_at": "2018-08-23T23:19:57.825Z",
    "created_at": "2018-07-24T01:32:47.255Z"
  },
  {
    "id": 44,
    "name": "Trim Tab Brewing",
    "brewery_type": "micro",
    "street": "2721 5th Ave S",
    "address_2": null,
    "address_3": null,
    "city": "Birmingham",
    "state": "Alabama",
    "county_province": null,
    "postal_code": "35233-3401",
    "country": "United States",
    "longitude": "-86.7914000624146",
    "latitude": "33.5128492349817",
    "phone": "2057030536",
    "website_url": "http://www.trimtabbrewing.com",
    "updated_at": "2018-08-23T23:20:31.423Z",
    "created_at": "2018-07-24T01:32:47.815Z"
  },
  {
    "id": 46,
    "name": "Yellowhammer Brewery",
    "brewery_type": "micro",
    "street": "2600 Clinton Ave W",
    "address_2": null,
    "address_3": null,
    "city": "Huntsville",
    "state": "Alabama",
    "county_province": null,
    "postal_code": "35805-3046",
    "country": "United States",
    "longitude": "-86.5932014",
    "latitude": "34.7277523",
    "phone": "2569755950",
    "website_url": "http://www.yellowhammerbrewery.com",
    "updated_at": "2018-08-23T23:20:33.102Z",
    "created_at": "2018-07-24T01:32:47.838Z"
  },
  {
    "id": 55,
    "name": "Bearpaw River Brewing Co",
    "brewery_type": "micro",
    "street": "4605 E Palmer Wasilla Hwy",
    "address_2": null,
    "address_3": null,
    "city": "Wasilla",
    "state": "Alaska",
    "county_province": null,
    "postal_code": "99654-7679",
    "country": "United States",
    "longitude": "-149.4127103",
    "latitude": "61.5752695",
    "phone": "",
    "website_url": "http://bearpawriverbrewing.com",
    "updated_at": "2018-08-23T23:20:40.743Z",
    "created_at": "2018-07-24T01:32:47.967Z"
  },
  {
    "id": 76,
    "name": "King Street Brewing Co",
    "brewery_type": "micro",
    "street": "9050 King Street",
    "address_2": null,
    "address_3": null,
    "city": "Anchorage",
    "state": "Alaska",
    "county_province": null,
    "postal_code": "99515",
    "country": "United States",
    "longitude": "-149.879076042937",
    "latitude": "61.1384893547315",
    "phone": "9073365464",
    "website_url": "http://www.kingstreetbrewing.com",
    "updated_at": "2018-08-23T23:20:57.179Z",
    "created_at": "2018-07-24T01:32:48.301Z"
  },
  {
    "id": 94,
    "name": "1912 Brewing",
    "brewery_type": "micro",
    "street": "2045 N Forbes Blvd Ste 105",
    "address_2": null,
    "address_3": null,
    "city": "Tucson",
    "state": "Arizona",
    "county_province": null,
    "postal_code": "85745-1444",
    "country": "United States",
    "longitude": "-110.992750525872",
    "latitude": "32.2467372722906",
    "phone": "5202564851",
    "website_url": "http://www.1912brewing.com",
    "updated_at": "2018-08-23T23:21:11.302Z",
    "created_at": "2018-07-24T01:32:48.582Z"
  },
  {
    "id": 98,
    "name": "Bad Water Brewing",
    "brewery_type": "contract",
    "street": "4216 N Brown Ave",
    "address_2": null,
    "address_3": null,
    "city": "Scottsdale",
    "state": "Arizona",
    "county_province": null,
    "postal_code": "85251-3914",
    "country": "United States",
    "longitude": "-111.924474347826",
    "latitude": "33.4972615652174",
    "phone": "5207459175",
    "website_url": "http://www.badwaterbrewing.com",
    "updated_at": "2018-08-23T23:21:15.169Z",
    "created_at": "2018-07-24T01:32:48.636Z"
  },
  {
    "id": 104,
    "name": "BJs Restaurant \u0026 Brewery - Chandler",
    "brewery_type": "brewpub",
    "street": "3155 W Chandler Blvd",
    "address_2": null,
    "address_3": null,
    "city": "Chandler",
    "state": "Arizona",
    "county_province": null,
    "postal_code": "85226-5175",
    "country": "United States",
    "longitude": "-111.911126",
    "latitude": "33.3053455",
    "phone": "4809170631",
    "website_url": "http://www.bjsrestaurants.com",
    "updated_at": "2018-08-23T23:21:21.165Z",
    "created_at": "2018-07-24T01:32:48.716Z"
  },
  {
    "id": 107,
    "name": "BlackRock Brewers",
    "brewery_type": "micro",
    "street": "1664 S Research Loop Ste 200",
    "address_2": null,
    "address_3": null,
    "city": "Tucson",
    "state": "Arizona",
    "county_province": null,
    "postal_code": "85710-6767",
    "country": "United States",
    "longitude": "-110.821778571134",
    "latitude": "32.201608314954",
    "phone": "5202073203",
    "website_url": "http://www.brb.beer",
    "updated_at": "2018-08-23T23:21:23.794Z",
    "created_at": "2018-07-24T01:32:48.758Z"
  },
  {
    "id": 127,
    "name": "Dragoon Brewing Co",
    "brewery_type": "micro",
    "street": "1859 W Grant Rd Ste 111",
    "address_2": null,
    "address_3": null,
    "city": "Tucson",
    "state": "Arizona",
    "county_province": null,
    "postal_code": "85745-1214",
    "country": "United States",
    "longitude": "-111.005452051979",
    "latitude": "32.2504946147872",
    "phone": "5203293606",
    "website_url": "http://www.dragoonbrewing.com",
    "updated_at": "2018-08-23T23:21:40.563Z",
    "created_at": "2018-07-24T01:32:49.040Z"
  },
  {
    "id": 141,
    "name": "Grand Canyon Brewing Company",
    "brewery_type": "micro",
    "street": "233 W Route 66",
    "address_2": null,
    "address_3": null,
    "city": "Williams",
    "state": "Arizona",
    "county_province": null,
    "postal_code": "86046-2530",
    "country": "United States",
    "longitude": "-112.1892168",
    "latitude": "35.2500282",
    "phone": "8005132072",
    "website_url": "http://www.grandcanyonbrewingco.com",
    "updated_at": "2018-08-23T23:21:53.397Z",
    "created_at": "2018-07-24T01:32:49.251Z"
  },
  {
    "id": 163,
    "name": "Mudshark Brewing Co",
    "brewery_type": "micro",
    "street": "210 Swanson Ave",
    "address_2": null,
    "address_3": null,
    "city": "Lake Havasu City",
    "state": "Arizona",
    "county_province": null,
    "postal_code": "86403-0966",
    "country": "United States",
    "longitude": "-114.342433477881",
    "latitude": "34.4689736300844",
    "phone": "9284532981",
    "website_url": "http://www.mudsharkbrewingco.com",
    "updated_at": "2018-08-23T23:22:12.542Z",
    "created_at": "2018-07-24T01:32:49.546Z"
  },
  {
    "id": 182,
    "name": "Richter Aleworks",
    "brewery_type": "micro",
    "street": "8279 W Lake Pleasant Pkwy Ste 110",
    "address_2": null,
    "address_3": null,
    "city": "Peoria",
    "state": "Arizona",
    "county_province": null,
    "postal_code": "85382-7434",
    "country": "United States",
    "longitude": "-112.238054093359",
    "latitude": "33.6687744976834",
    "phone": "6029086553",
    "website_url": "http://www.richteraleworks.com",
    "updated_at": "2018-08-23T23:22:29.385Z",
    "created_at": "2018-07-24T01:32:49.796Z"
  },
  {
    "id": 187,
    "name": "SanTan Brewing Co",
    "brewery_type": "regional",
    "street": "8 S San Marcos Pl",
    "address_2": null,
    "address_3": null,
    "city": "Chandler",
    "state": "Arizona",
    "county_province": null,
    "postal_code": "85225-7862",
    "country": "United States",
    "longitude": "-111.8423459",
    "latitude": "33.3032436",
    "phone": "4809178700",
    "website_url": "http://www.santanbrewing.com",
    "updated_at": "2018-08-23T23:22:33.482Z",
    "created_at": "2018-07-24T01:32:49.861Z"
  },
  {
    "id": 198,
    "name": "State 48 Brewery",
    "brewery_type": "brewpub",
    "street": "13823 W Bell Rd",
    "address_2": null,
    "address_3": null,
    "city": "Surprise",
    "state": "Arizona",
    "county_province": null,
    "postal_code": "85374-3873",
    "country": "United States",
    "longitude": "-112.357813820157",
    "latitude": "33.63822125",
    "phone": "6235841095",
    "website_url": "",
    "updated_at": "2018-08-23T23:22:41.468Z",
    "created_at": "2018-07-24T01:32:49.995Z"
  },
  {
    "id": 219,
    "name": "Wren House Brewing Company",
    "brewery_type": "micro",
    "street": "2125 N 24th St",
    "address_2": null,
    "address_3": null,
    "city": "Phoenix",
    "state": "Arizona",
    "county_province": null,
    "postal_code": "85008-2713",
    "country": "United States",
    "longitude": "-112.0301125",
    "latitude": "33.516633",
    "phone": "6022449184",
    "website_url": "http://www.wrenhousebrewing.com",
    "updated_at": "2018-08-23T23:22:59.255Z",
    "created_at": "2018-07-24T01:32:50.299Z"
  },
  {
    "id": 225,
    "name": "Brick Oven Pizza Co / Brick \u0026 Forge Brewing",
    "brewery_type": "brewpub",
    "street": "2410 Linwood Dr",
    "address_2": null,
    "address_3": null,
    "city": "Paragould",
    "state": "Arkansas",
    "county_province": null,
    "postal_code": "72450-6122",
    "country": "United States",
    "longitude": "-90.5204797204622",
    "latitude": "36.0316358142169",
    "phone": "8702364200",
    "website_url": "http://www.brickovenpizzacompany.com",
    "updated_at": "2018-08-23T23:23:05.438Z",
    "created_at": "2018-07-24T01:32:50.376Z"
  },
  {
    "id": 235,
    "name": "Diamond Bear Brewing Co",
    "brewery_type": "micro",
    "street": "600 N Broadway St",
    "address_2": null,
    "address_3": null,
    "city": "North Little Rock",
    "state": "Arkansas",
    "county_province": null,
    "postal_code": "72114-5381",
    "country": "United States",
    "longitude": "-92.2726892120821",
    "latitude": "34.7594277548278",
    "phone": "5017082739",
    "website_url": "http://www.diamondbear.com",
    "updated_at": "2018-08-23T23:23:14.931Z",
    "created_at": "2018-07-24T01:32:50.503Z"
  },
  {
    "id": 247,
    "name": "Lost Forty Brewing",
    "brewery_type": "micro",
    "street": "501 Byrd St",
    "address_2": null,
    "address_3": null,
    "city": "Little Rock",
    "state": "Arkansas",
    "county_province": null,
    "postal_code": "72202",
    "country": "United States",
    "longitude": "-92.260019",
    "latitude": "34.742845",
    "phone": "5013197275",
    "website_url": "http://www.lost40brewing.com/",
    "updated_at": "2018-08-23T23:23:24.018Z",
    "created_at": "2018-07-24T01:32:50.710Z"
  },
  {
    "id": 253,
    "name": "Rapp's Barren Brewing Company",
    "brewery_type": "micro",
    "street": "1343 E 9th St",
    "address_2": null,
    "address_3": null,
    "city": "Mountain Home",
    "state": "Arkansas",
    "county_province": null,
    "postal_code": "72653-5050",
    "country": "United States",
    "longitude": "-92.3599724",
    "latitude": "36.3326432",
    "phone": "8704247288",
    "website_url": "http://www.rappsbarrenbrewing.com",
    "updated_at": "2018-08-23T23:23:29.428Z",
    "created_at": "2018-07-24T01:32:50.788Z"
  },
  {
    "id": 264,
    "name": "Whistleing Springs Brewing Company / Dark Hills Brewery",
    "brewery_type": "planning",
    "street": "",
    "address_2": null,
    "address_3": null,
    "city": "Lowell",
    "state": "Arkansas",
    "county_province": null,
    "postal_code": "72745-9294",
    "country": "United States",
    "longitude": "-94.1307587",
    "latitude": "36.2553543",
    "phone": "4792836365",
    "website_url": "http://www.darkhillsbrew.com",
    "updated_at": "2018-08-23T23:23:40.468Z",
    "created_at": "2018-07-24T01:32:50.920Z"
  },
  {
    "id": 281,
    "name": "7 Sisters Brewing Co",
    "brewery_type": "brewpub",
    "street": "181 Tank Farm Rd Ste 110",
    "address_2": null,
    "address_3": null,
    "city": "San Luis Obispo",
    "state": "California",
    "county_province": null,
    "postal_code": "93401-7082",
    "country": "United States",
    "longitude": "-120.670637530612",
    "latitude": "35.2467277959184",
    "phone": "8058687133",
    "website_url": "http://www.7sistersbrewing.com",
    "updated_at": "2018-08-23T23:23:55.334Z",
    "created_at": "2018-07-24T01:32:51.264Z"
  },
  {
    "id": 286,
    "name": "Abnormal Beer Company",
    "brewery_type": "micro",
    "street": "16990 Via Tazon Ste 123",
    "address_2": null,
    "address_3": null,
    "city": "San Diego",
    "state": "California",
    "county_province": null,
    "postal_code": "92127-1649",
    "country": "United States",
    "longitude": "-117.08575",
    "latitude": "33.02391",
    "phone": "8586182463",
    "website_url": "http://abnormalbeer.co",
    "updated_at": "2018-08-23T23:24:00.025Z",
    "created_at": "2018-07-24T01:32:51.325Z"
  },
  {
    "id": 305,
    "name": "Altamont Beer Works",
    "brewery_type": "micro",
    "street": "2402 Research Dr",
    "address_2": null,
    "address_3": null,
    "city": "Livermore",
    "state": "California",
    "county_province": null,
    "postal_code": "94550-3850",
    "country": "United States",
    "longitude": "-121.721097428074",
    "latitude": "37.6783911404914",
    "phone": "9254432337",
    "website_url": "http://www.altamontbeerworks.com",
    "updated_at": "2018-08-23T23:24:16.819Z",
    "created_at": "2018-07-24T01:32:51.568Z"
  },
  {
    "id": 329,
    "name": "Auburn Alehouse",
    "brewery_type": "brewpub",
    "street": "289 Washington St",
    "address_2": null,
    "address_3": null,
    "city": "Auburn",
    "state": "California",
    "county_province": null,
    "postal_code": "95603-5036",
    "country": "United States",
    "longitude": "-121.078958250811",
    "latitude": "38.8961210674875",
    "phone": "5308852537",
    "website_url": "http://www.auburnalehouse.com",
    "updated_at": "2018-08-23T23:24:41.928Z",
    "created_at": "2018-07-24T01:32:51.916Z"
  },
  {
    "id": 333,
    "name": "Back Street Brewery \u0026 Tasting Room",
    "brewery_type": "micro",
    "street": "1884 S Santa Cruz St",
    "address_2": null,
    "address_3": null,
    "city": "Anaheim",
    "state": "California",
    "county_province": null,
    "postal_code": "92805-6726",
    "country": "United States",
    "longitude": "-117.896089444444",
    "latitude": "33.7998367777778",
    "phone": "6572364050",
    "website_url": "http://www.backstreetbrew.com",
    "updated_at": "2018-08-23T23:24:45.724Z",
    "created_at": "2018-07-24T01:32:51.974Z"
  },
  {
    "id": 361,
    "name": "Bear Republic Brewing Co Pub \u0026 Restaurant - Lakeside",
    "brewery_type": "brewpub",
    "street": "5000 Roberts Lake Rd",
    "address_2": null,
    "address_3": null,
    "city": "Rohnert Park",
    "state": "California",
    "county_province": null,
    "postal_code": "94928",
    "country": "United States",
    "longitude": "-122.7101405",
    "latitude": "38.3649703",
    "phone": "7075852722",
    "website_url": "http://bearrepublic.com",
    "updated_at": "2018-08-23T23:25:11.314Z",
    "created_at": "2018-07-24T01:32:52.349Z"
  },
  {
    "id": 376,
    "name": "Bird Street Brewing",
    "brewery_type": "micro",
    "street": "242 Heinlen St",
    "address_2": null,
    "address_3": null,
    "city": "Lemoore",
    "state": "California",
    "county_province": null,
    "postal_code": "93245-2947",
    "country": "United States",
    "longitude": "-119.784711",
    "latitude": "36.3014675555556",
    "phone": "5593094649",
    "website_url": "http://www.birdstreetbrewing.com",
    "updated_at": "2018-08-23T23:25:24.815Z",
    "created_at": "2018-07-24T01:32:52.533Z"
  },
  {
    "id": 385,
    "name": "Black Hammer Brewing",
    "brewery_type": "micro",
    "street": "544 Bryant St",
    "address_2": null,
    "address_3": null,
    "city": "San Francisco",
    "state": "California",
    "county_province": null,
    "postal_code": "94107-1217",
    "country": "United States",
    "longitude": "-122.3969947",
    "latitude": "37.780655",
    "phone": "4155002273",
    "website_url": "http://www.blackhammerbrewing.com",
    "updated_at": "2018-08-23T23:25:33.033Z",
    "created_at": "2018-07-24T01:32:52.642Z"
  },
  {
    "id": 410,
    "name": "Brewbakers Brewing Co",
    "brewery_type": "brewpub",
    "street": "219 E Main St",
    "address_2": null,
    "address_3": null,
    "city": "Visalia",
    "state": "California",
    "county_province": null,
    "postal_code": "93291-6355",
    "country": "United States",
    "longitude": "-119.2906961",
    "latitude": "36.3300786",
    "phone": "5596272739",
    "website_url": "http://www.brewbakersbrewingco.com",
    "updated_at": "2018-08-23T23:25:54.818Z",
    "created_at": "2018-07-24T01:32:52.944Z"
  },
  {
    "id": 425,
    "name": "Brewery in Planning - Los Angeles",
    "brewery_type": "planning",
    "street": "",
    "address_2": null,
    "address_3": null,
    "city": "Los Angeles",
    "state": "California",
    "county_province": null,
    "postal_code": "90049-1620",
    "country": "United States",
    "longitude": "-118.2427669",
    "latitude": "34.0536834",
    "phone": "3107796045",
    "website_url": "",
    "updated_at": "2018-08-23T23:26:04.273Z",
    "created_at": "2018-07-24T01:32:53.127Z"
  },
  {
    "id": 430,
    "name": "Brewery in Planning - San Diego",
    "brewery_type": "planning",
    "street": "",
    "address_2": null,
    "address_3": null,
    "city": "San Diego",
    "state": "California",
    "county_province": null,
    "postal_code": "92121-4396",
    "country": "United States",
    "longitude": "-117.1627714",
    "latitude": "32.7174209",
    "phone": "8588882188",
    "website_url": "http://WWW.gravityheights.com",
    "updated_at": "2018-08-23T23:26:06.455Z",
    "created_at": "2018-07-24T01:32:53.189Z"
  },
  {
    "id": 437,
    "name": "Brewery Twenty Five",
    "brewery_type": "micro",
    "street": "106 3rd St",
    "address_2": null,
    "address_3": null,
    "city": "Hollister",
    "state": "California",
    "county_province": null,
    "postal_code": "95023",
    "country": "United States",
    "longitude": "-121.400836918367",
    "latitude": "36.8535938163265",
    "phone": "8316367640",
    "website_url": "http://www.brewerytwentyfive.com",
    "updated_at": "2018-08-23T23:26:09.967Z",
    "created_at": "2018-07-24T01:32:53.273Z"
  },
  {
    "id": 456,
    "name": "Camino Brewing Co LLC",
    "brewery_type": "micro",
    "street": "718 S 1st St",
    "address_2": null,
    "address_3": null,
    "city": "San Jose",
    "state": "California",
    "county_province": null,
    "postal_code": "95113",
    "country": "United States",
    "longitude": "-121.882347823612",
    "latitude": "37.3253017839889",
    "phone": "",
    "website_url": "http://www.caminobrewing.com",
    "updated_at": "2018-08-23T23:26:25.248Z",
    "created_at": "2018-07-24T01:32:53.511Z"
  },
  {
    "id": 479,
    "name": "Chula Vista Brewery",
    "brewery_type": "micro",
    "street": "294 Third Ave",
    "address_2": null,
    "address_3": null,
    "city": "Chula Vista",
    "state": "California",
    "county_province": null,
    "postal_code": "91910-2701",
    "country": "United States",
    "longitude": "-117.080369",
    "latitude": "32.641495",
    "phone": "6196168806",
    "website_url": "http://www.chulavistabrewery.com",
    "updated_at": "2018-08-23T23:26:42.768Z",
    "created_at": "2018-07-24T01:32:53.796Z"
  },
  {
    "id": 4,
    "name": "Band of Brothers Brewing Company",
    "brewery_type": "micro",
    "street": "1605 23rd Ave",
    "address_2": null,
    "address_3": null,
    "city": "Tuscaloosa",
    "state": "Alabama",
    "county_province": null,
    "postal_code": "35401-4653",
    "country": "United States",
    "longitude": "-87.5621551272424",
    "latitude": "33.1984907123707",
    "phone": "2052665137",
    "website_url": null,
    "updated_at": "2018-08-23T23:19:59.462Z",
    "created_at": "2018-07-24T01:32:47.279Z"
  },
  {
    "id": 54,
    "name": "Barnaby Brewing Company",
    "brewery_type": "micro",
    "street": "206 N Franklin St",
    "address_2": null,
    "address_3": null,
    "city": "Juneau",
    "state": "Alaska",
    "county_province": null,
    "postal_code": "99801-1225",
    "country": "United States",
    "longitude": "-134.407726539973",
    "latitude": "58.3017758843016",
    "phone": "9074190916",
    "website_url": "http://www.barnabybrew.com",
    "updated_at": "2018-08-23T23:20:39.859Z",
    "created_at": "2018-07-24T01:32:47.953Z"
  },
  {
    "id": 489,
    "name": "Cloverdale Ale Company's Ruth McGowan's Brewpub",
    "brewery_type": "brewpub",
    "street": "131 E 1st St",
    "address_2": null,
    "address_3": null,
    "city": "Cloverdale",
    "state": "California",
    "county_province": null,
    "postal_code": "95425-3701",
    "country": "United States",
    "longitude": "-123.016572852146",
    "latitude": "38.8053232210103",
    "phone": "7078949610",
    "website_url": "http://www.ruthmcgowansbrewpub.com",
    "updated_at": "2018-08-23T23:26:51.276Z",
    "created_at": "2018-07-24T01:32:53.922Z"
  },
  {
    "id": 508,
    "name": "Craftsman Brewing Co",
    "brewery_type": "micro",
    "street": "1260 Lincoln Ave Ste 100",
    "address_2": null,
    "address_3": null,
    "city": "Pasadena",
    "state": "California",
    "county_province": null,
    "postal_code": "91103-2465",
    "country": "United States",
    "longitude": "-118.1595567",
    "latitude": "34.1674435",
    "phone": "6262962537",
    "website_url": "http://www.craftsmanbrewing.com",
    "updated_at": "2018-08-23T23:27:07.240Z",
    "created_at": "2018-07-24T01:32:54.192Z"
  },
  {
    "id": 525,
    "name": "Devil's Potion Brewing Company LLC",
    "brewery_type": "planning",
    "street": "",
    "address_2": null,
    "address_3": null,
    "city": "Escondido",
    "state": "California",
    "county_province": null,
    "postal_code": "92026-3187",
    "country": "United States",
    "longitude": "-117.0814849",
    "latitude": "33.1216751",
    "phone": "7605329091",
    "website_url": "http://www.devilspotion.com",
    "updated_at": "2018-08-23T23:27:21.742Z",
    "created_at": "2018-07-24T01:32:54.405Z"
  },
  {
    "id": 543,
    "name": "Dry River Brewing",
    "brewery_type": "micro",
    "street": "671 S Anderson St",
    "address_2": null,
    "address_3": null,
    "city": "Los Angeles",
    "state": "California",
    "county_province": null,
    "postal_code": "90023-1110",
    "country": "United States",
    "longitude": "-118.223301521739",
    "latitude": "34.0363873913043",
    "phone": "2133755235",
    "website_url": "http://www.dryriverbrewing.com",
    "updated_at": "2018-08-23T23:27:38.017Z",
    "created_at": "2018-07-24T01:32:54.647Z"
  },
  {
    "id": 562,
    "name": "Eight Bridges Brewing",
    "brewery_type": "micro",
    "street": "332 Earhart Way",
    "address_2": null,
    "address_3": null,
    "city": "Livermore",
    "state": "California",
    "county_province": null,
    "postal_code": "94551-9309",
    "country": "United States",
    "longitude": "-121.814589292069",
    "latitude": "37.6989500360251",
    "phone": "9259619160",
    "website_url": "http://www.eightbridgesbrewing.com",
    "updated_at": "2018-08-23T23:27:54.121Z",
    "created_at": "2018-07-24T01:32:54.897Z"
  },
  {
    "id": 573,
    "name": "Eppig Brewing",
    "brewery_type": "micro",
    "street": "3052 El Cajon Blvd Ste 103",
    "address_2": null,
    "address_3": null,
    "city": "San Diego",
    "state": "California",
    "county_province": null,
    "postal_code": "92104-1399",
    "country": "United States",
    "longitude": "-117.128732",
    "latitude": "32.755723",
    "phone": "6195011840",
    "website_url": "http://www.eppigbrewing.com",
    "updated_at": "2018-08-23T23:28:03.844Z",
    "created_at": "2018-07-24T01:32:55.121Z"
  },
  {
    "id": 574,
    "name": "Escape Craft Brewery",
    "brewery_type": "micro",
    "street": "721 Nevada St Ste 401",
    "address_2": null,
    "address_3": null,
    "city": "Redlands",
    "state": "California",
    "county_province": null,
    "postal_code": "92373-8053",
    "country": "United States",
    "longitude": "-117.217577166632",
    "latitude": "34.0603401026307",
    "phone": "9097133727",
    "website_url": "http://www.escapecraftbrewery.com",
    "updated_at": "2018-08-23T23:28:04.869Z",
    "created_at": "2018-07-24T01:32:55.136Z"
  },
  {
    "id": 592,
    "name": "Fieldwork Brewing Co",
    "brewery_type": "regional",
    "street": "1160 6th St",
    "address_2": null,
    "address_3": null,
    "city": "Berkeley",
    "state": "California",
    "county_province": null,
    "postal_code": "94710-1247",
    "country": "United States",
    "longitude": "-122.302214696327",
    "latitude": "37.88157297059",
    "phone": "5108981203",
    "website_url": "http://www.fieldworkbrewing.com",
    "updated_at": "2018-08-23T23:28:19.100Z",
    "created_at": "2018-07-24T01:32:55.370Z"
  },
  {
    "id": 612,
    "name": "Fort Point Beer Company",
    "brewery_type": "regional",
    "street": "644 Mason St",
    "address_2": null,
    "address_3": null,
    "city": "San Francisco",
    "state": "California",
    "county_province": null,
    "postal_code": "94129-1600",
    "country": "United States",
    "longitude": "-122.410227755102",
    "latitude": "37.789461244898",
    "phone": "4159064021",
    "website_url": "http://www.fortpointbeer.com",
    "updated_at": "2018-08-23T23:28:36.026Z",
    "created_at": "2018-07-24T01:32:55.631Z"
  },
  {
    "id": 615,
    "name": "Fountainhead Brewing Co",
    "brewery_type": "micro",
    "street": "4621 24th St",
    "address_2": null,
    "address_3": null,
    "city": "Sacramento",
    "state": "California",
    "county_province": null,
    "postal_code": "95822-1412",
    "country": "United States",
    "longitude": "-121.483117319123",
    "latitude": "38.5332279038371",
    "phone": "9162284610",
    "website_url": "http://www.fountainheadbrewingco.com",
    "updated_at": "2018-08-23T23:28:38.770Z",
    "created_at": "2018-07-24T01:32:55.673Z"
  },
  {
    "id": 623,
    "name": "Geartooth AleWerks",
    "brewery_type": "micro",
    "street": "1635 S 7th St",
    "address_2": null,
    "address_3": null,
    "city": "San Jose",
    "state": "California",
    "county_province": null,
    "postal_code": "95112-5932",
    "country": "United States",
    "longitude": "-121.866477333785",
    "latitude": "37.315251291037",
    "phone": "4084832679",
    "website_url": "http://www.geartoothalewerks.com",
    "updated_at": "2018-08-23T23:28:45.233Z",
    "created_at": "2018-07-24T01:32:55.783Z"
  },
  {
    "id": 633,
    "name": "Golden State Brewery",
    "brewery_type": "micro",
    "street": "1252 Memorex Dr",
    "address_2": null,
    "address_3": null,
    "city": "Santa Clara",
    "state": "California",
    "county_province": null,
    "postal_code": "95050-2812",
    "country": "United States",
    "longitude": "-121.950316757586",
    "latitude": "37.3625383916082",
    "phone": "4087272337",
    "website_url": "http://www.goldenstate.beer",
    "updated_at": "2018-08-23T23:28:53.181Z",
    "created_at": "2018-07-24T01:32:55.910Z"
  },
  {
    "id": 654,
    "name": "Hangar 24 Craft Brewery",
    "brewery_type": "regional",
    "street": "1710 Sessums Dr",
    "address_2": null,
    "address_3": null,
    "city": "Redlands",
    "state": "California",
    "county_province": null,
    "postal_code": "92374-1909",
    "country": "United States",
    "longitude": "-117.1419134",
    "latitude": "34.0831712",
    "phone": "9093891400",
    "website_url": "http://www.hangar24brewery.com",
    "updated_at": "2018-08-23T23:29:10.400Z",
    "created_at": "2018-07-24T01:32:56.216Z"
  }
]